{  
   "administrators":[  
      {  
         "fname":"Emergency",
         "lname":"Namibia",
         "username":"root",
         "password":"root",
         "town":"Okahandja",
         "phone":"0818291579"
      }
   ],
   "citizens":[  
      {  
         "fname":"Rieda",
         "lname":"Nekwaya",
         "town":"Okahandja",
         "phone":"0818291579"
      },
      {  
         "fname":"Pedro",
         "lname":"Shifidi",
         "town":"Swakopmund",
         "phone":"0813748988"
      },
      {  
         "fname":"Lukas",
         "lname":"Namupala",
         "town":"Ondangwa",
         "phone":"0814177731‬"
      },
      {  
         "fname":"Bertie",
         "lname":"Coetzee",
         "town":"Grootfontein",
         "phone":"0812026180"
      },
      {  
         "fname":"Tuli",
         "lname":"Amakali",
         "town":"Otavi",
         "phone":"0816166221"
      },
      {  
         "fname":"Erastus",
         "lname":"Nathingo",
         "town":"Oshakati",
         "phone":"0817246654"
      },
      {  
         "fname":"Leonard",
         "lname":"Shivute",
         "town":"Windhoek",
         "phone":"0817324441"
      },
      {  
         "fname":"Heinrich",
         "lname":"Aluvilu",
         "town":"Outapi",
         "phone":"0814710142"
      }
   ],
   "services":[  
      {  
         "sname":"City Police",
         "username":"root",
         "password":"root",
         "town":"Windhoek",
         "em_phone":"+264 61 2902703",
         "em_phone_alt":"na",
         "em_type":"police",
         "residence":"C/O Essen & Sishen Streets, Windhoek North, P.O. Box 50242 Brachbrecht, Namiba, Windhoek",
         "location":[  
            {  
               "latitude":"-22.560881"
            },
            {  
               "longitude":"17.065755"
            }
         ]
      },
      {  
         "sname":"State Hospital",
         "username":"root",
         "password":"root",
         "town":"Windhoek",
         "em_phone":"+264 612039 111",
         "em_phone_alt":"na",
         "em_type":"hospital",
         "country":"Namibia",
         "residence":"Namiba, Windhoek",
         "location":[  
            {  
               "lat":"-22.5538277"
            },
            {  
               "long":"17.0687286"
            }
         ]
      },
      {  
         "sname":"Fire Brigade",
         "username":"root",
         "password":"root",
         "town":"Windhoek",
         "em_phone":"+264 61  211 111",
         "em_phone_alt":"na",
         "em_type":"fire brigade",
         "country":"Namibia",
         "residence":"Namiba, Windhoek",
         "location":[  
            {  
               "latitude":"-22.560881"
            },
            {  
               "longitude":"17.065755"
            }
         ]
      }
   ],
   "resources":[  
      {  
         "fname":"Selma",
         "lname":"Selma",
         "rnumber":"000001EM",
         "town":"Windhoek",
         "status":"available",
         "service_type":"City Police",
         "em_type":"Police"
      },
      {  
         "fname":"Paulus",
         "lname":"Paulus",
         "rnumber":"000010EM",
         "town":"Windhoek",
         "status":"available",
         "service_type":"City Police",
         "em_type":"Police"
      },
      {  
         "fname":"Mark",
         "lname":"Mark",
         "rnumber":"000011EM",
         "town":"Windhoek",
         "status":"available",
         "service_type":"NamPol",
         "em_type":"Police"
      },
      {  
         "fname":"Bertie",
         "lname":"Bertie",
         "rnumber":"000026EM",
         "town":"Windhoek",
         "status":"available",
         "service_type":"City Police",
         "em_type":"Police"
      },
      {  
         "fname":"Gervasius",
         "lname":"Gervasius",
         "rnumber":"000027EM",
         "town":"Windhoek",
         "status":"unavailable",
         "service_type":"NamPol",
         "em_type":"Police"
      },
      {  
         "fname":"Saarty",
         "lname":"Saarty",
         "rnumber":"000028EM",
         "town":"Windhoek",
         "status":"unavailable",
         "service_type":"NamPol",
         "em_type":"Police"
      },
      {  
         "fname":"Selma",
         "lname":"Selma",
         "rnumber":"000001EM",
         "town":"Windhoek",
         "status":"available",
         "service_type":"City Police",
         "em_type":"Police"
      },
      {  
         "fname":"Paulus",
         "lname":"Paulus",
         "rnumber":"000010EM",
         "town":"Windhoek",
         "status":"available",
         "service_type":"City Police",
         "em_type":"Police"
      },
      {  
         "fname":"Mark",
         "lname":"Mark",
         "rnumber":"000011EM",
         "town":"Windhoek",
         "status":"available",
         "service_type":"NamPol",
         "em_type":"Police"
      },
      {  
         "fname":"Petrus",
         "lname":"Petrus",
         "rnumber":"000002EM",
         "town":"Windhoek",
         "status":"unavailable",
         "service_type":"Windhoek North Medical Centre",
         "em_type":"Hospital"
      },
      {  
         "fname":"Maria",
         "lname":"Maria",
         "rnumber":"000003EM",
         "town":"Windhoek",
         "status":"available",
         "service_type":"State Hospital",
         "em_type":"Hospital"
      },
      {  
         "fname":"Meriam",
         "lname":"Meriam",
         "rnumber":"000004EM",
         "town":"Windhoek",
         "status":"available",
         "service_type":"Robert Mugabe Clinic",
         "em_type":"Hospital"
      },
      {  
         "fname":"Ebben",
         "lname":"Ebben",
         "rnumber":"000005EM",
         "town":"Windhoek",
         "status":"available",
         "service_type":"Medicity Private Hospital",
         "em_type":"Hospital"
      },
      {  
         "fname":"Lovisa",
         "lname":"Lovisa",
         "rnumber":"000006EM",
         "town":"Windhoek",
         "status":"available",
         "service_type":"Katutura Hospital",
         "em_type":"Hospital"
      },
      {  
         "fname":"Agnes",
         "lname":"Agnes",
         "rnumber":"000007EM",
         "town":"Windhoek",
         "status":"available",
         "service_type":"Paramount Private Hospital",
         "em_type":"Hospital"
      },
      {  
         "fname":"Emma",
         "lname":"Emma",
         "rnumber":"000008EM",
         "town":"Windhoek",
         "status":"available",
         "service_type":"Rhino Park Private Hospital",
         "em_type":"Hospital"
      },
      {  
         "fname":"Peter",
         "lname":"Peter",
         "rnumber":"000009EM",
         "town":"Windhoek",
         "status":"available",
         "service_type":"Roman Catholic Hospital",
         "em_type":"Hospital"
      },
      {  
         "fname":"Mario",
         "lname":"Mario",
         "rnumber":"000017EM",
         "town":"Windhoek",
         "status":"available",
         "service_type":"Windhoek North Medical Centre",
         "em_type":"Hospital"
      },
      {  
         "fname":"Lesly",
         "lname":"Lesly",
         "rnumber":"000018EM",
         "town":"Windhoek",
         "status":"unavailable",
         "service_type":"State Hospital",
         "em_type":"Hospital"
      },
      {  
         "fname":"Zahara",
         "lname":"Zahara",
         "rnumber":"000019EM",
         "town":"Windhoek",
         "status":"unavailable",
         "service_type":"Robert Mugabe Clinic",
         "em_type":"Hospital"
      },
      {  
         "fname":"Festus",
         "lname":"Festus",
         "rnumber":"000020EM",
         "town":"Windhoek",
         "status":"unavailable",
         "service_type":"Medicity Private Hospital",
         "em_type":"Hospital"
      },
      {  
         "fname":"Lovisa",
         "lname":"Lovisa",
         "rnumber":"000021EM",
         "town":"Windhoek",
         "status":"available",
         "service_type":"Katutura Hospital",
         "em_type":"Hospital"
      },
      {  
         "fname":"Arnold",
         "lname":"Arnold",
         "rnumber":"000022EM",
         "town":"Windhoek",
         "status":"unavailable",
         "service_type":"Paramount Private Hospital",
         "em_type":"Hospital"
      },
      {  
         "fname":"Michael",
         "lname":"Michael",
         "rnumber":"000023EM",
         "town":"Windhoek",
         "status":"unavailable",
         "service_type":"Rhino Park Private Hospital",
         "em_type":"Hospital"
      },
      {  
         "fname":"Cecilia",
         "lname":"Cecilia",
         "rnumber":"000023EM",
         "town":"Windhoek",
         "status":"unavailable",
         "service_type":"Roman Catholic Hospital",
         "em_type":"Hospital"
      },
      {  
         "fname":"Saara",
         "lname":"Saara",
         "rnumber":"000012EM",
         "town":"Windhoek",
         "status":"available",
         "service_type":"Diaz Street Fire Stationl",
         "em_type":"Fire Brigade"
      },
      {  
         "fname":"Ilana",
         "lname":"Ilana",
         "rnumber":"000013EM",
         "town":"Windhoek",
         "status":"available",
         "service_type":"Maxuilili Fire Station",
         "em_type":"Fire Brigade"
      },
      {  
         "fname":"Kay",
         "lname":"Kay",
         "rnumber":"000013EM",
         "town":"Windhoek",
         "status":"available",
         "service_type":"Headquarters Fire Station",
         "em_type":"Fire Brigade"
      },
      {  
         "fname":"Saara",
         "lname":"Saara",
         "rnumber":"000016EM",
         "town":"Windhoek",
         "status":"unavailable",
         "service_type":"Diaz Street Fire Stationl",
         "em_type":"Fire Brigade"
      },
      {  
         "fname":"Bruce",
         "lname":"Bruce",
         "rnumber":"000015EM",
         "town":"Windhoek",
         "status":"unavailable",
         "service_type":"Maxuilili Fire Station",
         "em_type":"Fire Brigade"
      },
      {  
         "fname":"Rose",
         "lname":"Rose",
         "rnumber":"000014EM",
         "town":"Windhoek",
         "status":"unavailable",
         "service_type":"Headquarters Fire Station",
         "em_type":"Fire Brigade"
      }
   ],
   "em_types":[  
      {  
         "oname":"Hospital",
         "service_type":[  
            {  
               "sid":1,
               "name":"Roman Catholic Hospital"
            },
            {  
               "sid":2,
               "name":"Rhino Park Private Hospital"
            },
            {  
               "sid":3,
               "name":"Paramount Private Hospital"
            },
            {  
               "sid":4,
               "name":"Katutura Hospital"
            },
            {  
               "sid":5,
               "name":"Medicity Private Hospital"
            },
            {  
               "sid":6,
               "name":"Robert Mugabe Clinic"
            },
            {  
               "sid":7,
               "name":"State Hospital"
            },
            {  
               "sid":8,
               "name":"Windhoek North Medical Centre"
            }
         ]
      },
      {  
         "oname":"Fire Brigade",
         "service_type":[  
            {  
               "sid":1,
               "name":"Headquarters Fire Station"
            },
            {  
               "sid":2,
               "name":"Maxuilili Fire Station"
            },
            {  
               "sid":3,
               "name":"Diaz Street Fire Station"
            }
         ]
      },
      {  
         "oname":"Police",
         "service_type":[  
            {  
               "sid":1,
               "name":"City Police"
            },
            {  
               "sid":2,
               "name":"NamPol"
            }
         ]
      }
   ],
   "towns":[  
      {  
         "tid":"1",
         "tname":"Windhoek",
         "region":"Khomas"
      },
      {  
         "tid":"2",
         "tname":"Walvis",
         "region":"Erongo"
      },
      {  
         "tid":"3",
         "tname":"Swakopmund",
         "region":"Erongo"
      },
      {  
         "tid":"4",
         "tname":"Henties Bay",
         "region":"Erongo"
      },
      {  
         "tid":"5",
         "tname":"Omaruru",
         "region":"Erongo"
      },
      {  
         "tid":"6",
         "tname":"Otjiwarongo",
         "region":"Otjozondjupa"
      },
      {  
         "tid":"7",
         "tname":"Okahandja",
         "region":"Otjozondjupa"
      },
      {  
         "tid":"8",
         "tname":"Grootfontein",
         "region":"Otjozondjupa"
      },
      {  
         "tid":"9",
         "tname":"Mariental",
         "region":"Hardap"
      },
      {  
         "tid":"10",
         "tname":"Outjo",
         "region":"Kunene"
      },
      {  
         "tid":"11",
         "tname":"Gobabis",
         "region":"Omaheke"
      },
      {  
         "tid":"12",
         "tname":"Tsumeb",
         "region":"Oshikoto"
      },
      {  
         "tid":"13",
         "tname":"Keetmanshoop",
         "region":"Karas"
      },
      {  
         "tid":"14",
         "tname":"Karasburg",
         "region":"Karas"
      },
      {  
         "tid":"15",
         "tname":"Lüderitz",
         "region":"Karas"
      },
      {  
         "tid":"1",
         "tname":"Oranjemund",
         "region":"Karas"
      },
      {  
         "tid":"16",
         "tname":"Arandis",
         "region":"Erongo"
      },
      {  
         "tid":"17",
         "tname":"Karibib",
         "region":"Erongo"
      },
      {  
         "tid":"18",
         "tname":"Usakos",
         "region":"Erongo"
      },
      {  
         "tid":"19",
         "tname":"Aranos",
         "region":"Hardap"
      },
      {  
         "tid":"20",
         "tname":"Rehoboth",
         "region":"Hardap"
      },
      {  
         "tid":"21",
         "tname":"Rundu",
         "region":"Kavango East"
      },
      {  
         "tid":"22",
         "tname":"Nkurenkuru",
         "region":"Kavango West"
      },
      {  
         "tid":"23",
         "tname":"Khorixas",
         "region":"Kunene"
      },
      {  
         "tid":"24",
         "tname":"Opuwo",
         "region":"Kunene"
      },
      {  
         "tid":"25",
         "tname":"Eenhana",
         "region":"Ohangwena"
      },
      {  
         "tid":"26",
         "tname":"Helao Nafidi",
         "region":"Ohangwena"
      },
      {  
         "tid":"27",
         "tname":"Okahao",
         "region":"Omusati"
      },
      {  
         "tid":"28",
         "tname":"Oshikuku",
         "region":"Omusati"
      },
      {  
         "tid":"29",
         "tname":"Outapi",
         "region":"Omusati"
      },
      {  
         "tid":"30",
         "tname":"Ruacana",
         "region":"Omusati"
      },
      {  
         "tid":"31",
         "tname":"Oshakati",
         "region":"Oshana"
      },
      {  
         "tid":"32",
         "tname":"Ondangwa",
         "region":"Oshana"
      },
      {  
         "tid":"33",
         "tname":"Ongwediva",
         "region":"Oshana"
      },
      {  
         "tid":"34",
         "tname":"Omuthiya",
         "region":"Oshikoto"
      },
      {  
         "tid":"35",
         "tname":"Oniipa",
         "region":"Oshikoto"
      },
      {  
         "tid":"36",
         "tname":"Okakarara",
         "region":"Otjozondjupa"
      },
      {  
         "tid":"37",
         "tname":"Otavi",
         "region":"Otjozondjupa"
      },
      {  
         "tid":"38",
         "tname":"Katima Mulilo",
         "region":"Zambezi"
      }
   ],
   "reports":[  
      {  
         "rid":"1",
         "rname":"Crime",
         "lat":"-22.5657619",
         "long":"17.0420923",
         "status":"reported"
      },
      {  
         "rid":"2",
         "rname":"Accident",
         "lat":"-22.5985712",
         "long":"17.0001542",
         "status":"help on way"
      }
   ],
   "report_types":[  
      {  
         "rt_id":"1",
         "rt_name":"Crime"
      },
      {  
         "rt_id":"2",
         "rt_name":"Accident"
      },
      {  
         "rt_id":"3",
         "rt_name":"Fire"
      }
   ],
   "statuses":[  
      {  
         "st_id":"1",
         "st_name":"reported"
      },
      {  
         "st_id":"2",
         "st_name":"help on way"
      },
      {  
         "st_id":"3",
         "st_name":"resolved"
      }
   ]
}